,ID,name,categories,lat,lng,cuisines,Rating,Cost for Two
0,,Wenger's,Bakery,28.633411895746676,77.21829192902194,Fast Food,0.0,300.0
1,,HOTEL SARAVANA BHAVAN,South Indian Restaurant,28.632319466435003,77.21644531748599,"South Indian, Desserts, Beverages",4.4,500.0
2,,Sagar Ratna,Indian Restaurant,28.635487253836967,77.22064969494076,"South Indian, North Indian, Chinese",3.8,750.0
3,,Khan Chacha | खान चाचा | خان چاچا,Indian Restaurant,28.634202294199614,77.22077980678422,"Rolls, Kebab, Mughlai, North Indian",3.9,650.0
4,,Johnny Rockets,Bistro,28.630457,77.219594,NA,0.0,0.0
5,,Nizam's Kathi Kabab | निजा़म काठी कबाब,Indian Restaurant,28.634857957123064,77.21946245007211,"North Indian, Fast Food, Kebab, Rolls",3.9,900.0
6,,Pind Balluchi,North Indian Restaurant,28.630318339248806,77.21760032761195,"North Indian, Mughlai, Kebab",3.9,1300.0
7,,Chaayos,Café,28.631628538643216,77.22036426182864,"North Indian, Italian, Chinese, Mexican",4.0,1400.0
8,,Rajdhani Thali,Indian Restaurant,28.62999946326596,77.2204011327264,Rajasthani,4.1,700.0
9,,Farzi Cafe,Molecular Gastronomy Restaurant,28.632580798842707,77.22112484247755,"Desserts, Beverages, Cafe, Fast Food, Sandwich",2.4,600.0
10,,Nando's,Portuguese Restaurant,28.630946673402416,77.21972076414269,Fast Food,0.0,300.0
11,,"The Square, Cafe Coffee Day",Café,28.626639961580253,77.21928786545695,"Cafe, Fast Food",3.8,700.0
12,,Berco's,Chinese Restaurant,28.63240704948879,77.2173230839724,Fast Food,0.0,300.0
13,,Tamasha,Gastropub,28.629663327072745,77.22183483476593,"Finger Food, North Indian, Continental, Italian",4.5,1600.0
14,,United Coffee House,Indian Restaurant,28.63247672337289,77.2211199789975,"South Indian, Chinese, Asian, European, Mediterranean, North Indian",4.4,2500.0
15,,Odeon Social,Café,28.634414197963707,77.22093550978948,North Indian,2.8,500.0
16,,Tamra,Restaurant,28.620543184230115,77.21817445898111,"North Indian, Continental, European, Chinese, Thai, Japanese",4.3,3800.0
17,,Immigrants Project - A Cafe in History,Café,28.634055048338602,77.21886681496603,"North Indian, Italian, Continental",3.9,1600.0
18,,Fresc Co,Italian Restaurant,28.628415028106655,77.21954938989002,"North Indian, Mughlai, Kebab",4.3,3000.0
19,,Jain Chawal Wale,Food Truck,28.63162311822946,77.2275401521457,North Indian,3.9,1300.0
20,,The Spice Route,Asian Restaurant,28.625577291994166,77.21806493444225,"Malaysian, Thai, Kerala, Vietnamese, Sri Lankan",4.1,6000.0
21,,Wenger's Deli,Deli / Bodega,28.633657990718326,77.21813923616,"Bakery, Desserts, Fast Food, Salad",4.3,400.0
22,,Barbeque Nation,BBQ Joint,28.63025338767433,77.22098501777461,"North Indian, Chinese, BBQ",4.4,1600.0
23,,Warehouse Cafe,Café,28.63372638697029,77.22102407638606,"American, Continental, Italian, North Indian, Asian, Salad, Juices, Momos",4.1,2100.0
24,,Panchayat Paan Parlour,Indian Restaurant,28.634073264989183,77.22264498769991,Paan,4.0,150.0
25,,Anand Biryani House,Indian Restaurant,28.62913638616433,77.22012996193826,Street Food,4.2,100.0
26,,Bengali Market | बंगाली मार्केट | বাংলা বাজার,Indian Restaurant,28.62949840530067,77.23202048881043,"North Indian, Street Food, South Indian, Chinese, Mithai",3.8,400.0
27,,Kwality Restaurant,Indian Restaurant,28.629743645035568,77.21743130219578,"North Indian, Continental",4.1,2400.0
28,,Triveni Terrace Cafe,Café,28.62729512040755,77.23267677755523,"Healthy Food, North Indian, Kebab",4.2,400.0
29,,Chew,Asian Restaurant,28.632001527203066,77.22270642208512,"South Indian, North Indian, Biryani, Andhra, Seafood",4.1,800.0
30,,Dunkin' Donuts,Donut Shop,28.630181868375203,77.21962210391595,"North Indian, Mughlai, Chinese",4.0,1300.0
31,,Shake square,Café,28.6334059730543,77.218759059906,"Cafe, Fast Food",3.8,700.0
32,,Veda Restaurant,Indian Restaurant,28.635210214696645,77.21807926655758,North Indian,4.6,600.0
33,,Costa Coffee,Café,28.63173491632254,77.21840646471269,"Beverages, Cafe, Sandwich, Fast Food",2.8,600.0
34,,Garam Dharam,North Indian Restaurant,28.631842130012696,77.2227521244348,North Indian,3.9,1300.0
35,,Smoke House Deli,Deli / Bodega,28.633764,77.221405,"American, Continental, Italian, North Indian, Asian, Salad, Juices, Momos",4.1,2100.0
36,,Masala Library,Indian Restaurant,28.618814,77.21809,"North Indian, South Indian, Street Food",3.9,800.0
37,,1911,Mediterranean Restaurant,28.6255310755684,77.21871499822704,"European, Continental",3.5,6000.0
38,,eau de Monsoon,Indian Restaurant,28.618780576519963,77.21817254979929,"Continental, European, North Indian",4.0,4500.0
39,,The Drunkyard Cafe,Tibetan Restaurant,28.641451,77.215506,"North Indian, Chinese, Continental, Thai, Momos",3.7,850.0
40,,Haldiram's,Indian Restaurant,28.63422999171808,77.22233494432798,Fast Food,0.0,300.0
41,,The One,Restaurant,28.619146410488508,77.21790800719232,Continental,4.0,4500.0
42,,Tadka,Indian Restaurant,28.640501116044682,77.21320775083299,"Chinese, North Indian",3.7,600.0
43,,Andhra Bhavan Canteen,Indian Restaurant,28.617094521063013,77.22572098304474,"South Indian, Andhra",4.1,300.0
44,,McDonald's,Fast Food Restaurant,28.62653823569003,77.21950133630176,North Indian,3.8,150.0
45,,"Zen Chinese, Connaught Place",Chinese Restaurant,28.633657822271832,77.21949493258369,"Beverages, Desserts, Ice Cream",3.8,400.0
46,,Side Wok,Chinese Restaurant,28.632907157973833,77.21633720556096,"South Indian, Desserts, Beverages",4.4,500.0
47,,Japanese Fuji Restaurant,Japanese Restaurant,28.63309875268639,77.2221218013156,"Japanese, Sushi, Asian",4.2,2000.0
48,,McDonald's,Fast Food Restaurant,28.632365736814616,77.21648256126124,Fast Food,0.0,300.0
49,,McDonald’s,Fast Food Restaurant,28.630025692987704,77.21992785933003,North Indian,3.8,150.0
50,,Burger King,Fast Food Restaurant,28.632828449172408,77.22132551263886,"Burger, Fast Food, Beverages",4.0,500.0
51,,Ignis,Asian Restaurant,28.634227230587555,77.21880056952878,"North Indian, Chinese",3.1,650.0
52,,Nathu's Pastry Shop,Bakery,28.629421564674175,77.23217362373761,"North Indian, Street Food, South Indian, Chinese, Mithai",3.8,400.0
53,,쉼터,Korean Restaurant,28.64149453220881,77.21315160796688,NA,0.0,0.0
54,,Sita Ram Diwan Chand Chole Bhature,Food,28.642323765033268,77.2104165521629,North Indian,4.2,200.0
55,,Krishna rooftop cafe,Indian Chinese Restaurant,28.641079863493733,77.21366067491157,"North Indian, Chinese, Fast Food",3.3,600.0
56,,The Indian Grill Restaurant,Restaurant,28.646140825017163,77.21513343500447,"North Indian, Fast Food, Mughlai",2.7,1300.0
57,,Pizza Hut,Pizza Place,28.632165594905885,77.22275328035393,"Pizza, Fast Food",4.0,400.0
58,,Kake-Da-Hotel,Indian Restaurant,28.634710714433357,77.22201573164016,"North Indian, Mughlai",4.0,850.0
59,,The exotic roof top Restaurant,Indian Restaurant,28.641039172929673,77.2136341282525,"North Indian, Chinese, Fast Food",3.3,600.0
60,,Bengali Sweet House,Indian Restaurant,28.629489324307045,77.23203349372616,"North Indian, Street Food, South Indian, Chinese, Mithai",3.8,400.0
61,,"Le Belvedere, Le Meridien",Chinese Restaurant,28.618780424159272,77.21819405892465,"Continental, European, North Indian",4.0,4500.0
62,,Appetite German bakery,Snack Place,28.640857250087922,77.21175850056954,"Italian, Mexican, Chinese, North Indian, Fast Food",2.6,600.0
63,,Indian Coffee House,Café,28.630755930400426,77.21605434631832,North Indian,3.8,650.0
64,,Sakura,Japanese Restaurant,28.631309565114773,77.20810381213869,Japanese,3.9,5000.0
65,,FIRE,Indian Restaurant,28.628737183341777,77.21649767623988,"Continental, Italian, American, North Indian",3.6,3500.0
66,,McDonald's,Fast Food Restaurant,28.64493401837252,77.21398813391185,Bakery,3.1,400.0
67,,Malahotra Restaurant,Indian Restaurant,28.641051838211972,77.21033320184107,"North Indian, Chinese, Continental, Italian",3.2,800.0
68,,"Subway, Paharganj",Sandwich Place,28.64078003057344,77.2107935835259,North Indian,0.0,500.0
69,,Fa Yian,Chinese Restaurant,28.632793282499158,77.21718821209873,"Chinese, Momos",4.0,1200.0
70,,Sam's Cafe,Café,28.64110245283158,77.21266027981824,"Italian, North Indian, Chinese",3.3,750.0
71,,Metropolis Hotel / Tourist Home,Breakfast Spot,28.64070258750328,77.21065447108282,North Indian,2.8,1500.0
72,,"Sorrento, Shangri La",Italian Restaurant,28.62080091050139,77.2181636095047,"Continental, North Indian, Chinese, Bar Food",4.0,5000.0
73,,Kaleva,Snack Place,28.63329860331272,77.20848838202599,"North Indian, South Indian, Chinese, Fast Food, Street Food, Mithai",3.9,350.0
74,,MIST,Italian Restaurant,28.628720062553807,77.21629222049741,"Continental, Italian, Mediterranean",3.9,4500.0
75,,Domino's Pizza,Pizza Place,28.646,77.211,"Pizza, Fast Food",3.9,400.0
76,,Satyam Rooftop Restaurant,Restaurant,28.641198,77.21369,"Chinese, North Indian, Seafood",3.5,600.0
77,,Brown Bread Bakery,Bakery,28.640883493288246,77.21228700446335,"Fast Food, Continental, Italian, Bakery",3.6,600.0
78,,Café Festa,Indian Restaurant,28.64101653509604,77.21030160576831,"Cafe, North Indian",3.5,600.0
79,,China Garden,Chinese Restaurant,28.634342320913373,77.2173903193919,Chinese,3.9,1900.0
80,,Café Nirvana,Café,28.641333522569326,77.21468332222602,"Desserts, Beverages, Cafe, Fast Food, Sandwich",2.4,600.0
81,,Bikanervala,Indian Restaurant,28.6266175130141,77.20944050542066,"Mithai, Street Food, South Indian, North Indian, Chinese",3.8,600.0
82,,Swagath,Indian Restaurant,28.62149870440041,77.21858049977537,North Indian,3.6,200.0
83,,Shang Palace,Chinese Restaurant,28.620975140956652,77.21793293952942,Chinese,4.1,3500.0
84,,ఆంధ్ర భవన్ (Andhra Bhavan),Indian Restaurant,28.619656633029656,77.21996068954468,"South Indian, Andhra",4.1,300.0
85,,Everest Rooftop,Café,28.641147242996357,77.2134435505796,"Chinese, North Indian, Seafood",3.5,600.0
86,,Metropolis Restaurant,Indian Restaurant,28.640752509715924,77.21054093526213,North Indian,0.0,500.0
87,,The Shim Tur,Korean Restaurant,28.642412094375384,77.21330319364421,"Korean, Salad",4.0,600.0
88,,CSOI club,Indian Restaurant,28.619021856520057,77.22701457248938,Continental,4.0,4500.0
89,,Maharashtra Bhawan Canteen,Indian Restaurant,28.61812166408398,77.22878075218492,"North Indian, Maharashtrian",4.0,300.0
90,,Karen Cafe,Restaurant,28.646062445619535,77.2146056996046,Cafe,0.0,550.0
