,ID,name,categories,lat,lng,cuisines,Rating,Cost for Two
0,,Cafe Coffee Day,Café,28.57733714587845,77.16850356561686,"Beverages, Cafe, Sandwich, Fast Food",3.0,600.0
1,,Delhi Club House,Comfort Food Restaurant,28.572457133008967,77.17348929267234,"North Indian, Continental, Asian",4.3,1700.0
2,,Karnataka Food Centre,South Indian Restaurant,28.57811342788601,77.17501303798868,South Indian,4.2,450.0
3,,Jamavar Kashmiri Restaurant @ The Leela,Indian Restaurant,28.580142785889475,77.18926702333043,"North Indian, Mughlai",4.0,4000.0
4,,Cafe Coffee Day,Café,28.59524742121391,77.17195447455025,"Cafe, Desserts",4.0,700.0
5,,QD's,Dumpling Restaurant,28.588832514116405,77.16910425286557,North Indian,0,100.0
6,,The Potbelly,Northeast Indian Restaurant,28.583796346289404,77.1878284612995,"North Indian, Bihari, Fast Food",4.2,1000.0
7,,The China Kitchen,Chinese Restaurant,28.568618904703033,77.18526828671202,Chinese,4.1,4500.0
8,,Big Yellow Door,Café,28.58793233404987,77.16732996604847,"Cafe, Italian, Fast Food",4.2,700.0
9,,"TK's Oriental Grill, Hyatt Regency Hotel",Asian Restaurant,28.568649815937782,77.18527588242887,"Japanese, Thai, Sushi",4.1,4000.0
10,,Chowringhee,Deli / Bodega,28.588222667067523,77.16829210180312,"Chinese, North Indian, Rolls, Biryani, Momos",3.9,500.0
11,,The Qube,Breakfast Spot,28.58016233519692,77.1892701263573,"North Indian, Italian, Asian, Seafood, Continental",4.1,3000.0
12,,La Piazza,Italian Restaurant,28.56867033886882,77.18526798156412,"Italian, Salad",4.2,4500.0
13,,Woodbox Cafe,Bistro,28.58771575611469,77.1669163282383,"Cafe, Mexican, North Indian, Italian, Salad",3.9,1500.0
14,,Le Cirque,French Restaurant,28.5797579061002,77.18937425959463,"French, Italian",4.0,5000.0
15,,Golden Dragon,Chinese Restaurant,28.567697449763617,77.15890517539506,"Chinese, Seafood, Japanese, Thai",3.7,1500.0
16,,Alkakori Alkauser Mughlai Food,Indian Restaurant,28.56511762032796,77.16720141315803,"Mughlai, North Indian",3.9,1000.0
17,,Café Coffee Day,Café,28.595206530960507,77.1719253085772,"Cafe, Desserts",4.0,700.0
18,,Domino's Pizza,Pizza Place,28.57732747873153,77.16852044155917,"Pizza, Fast Food",3.8,400.0
19,,34 Chowringee Lane @ South Campus,Snack Place,28.588174214697034,77.16821987406293,"Fast Food, Beverages",4.0,250.0
20,,Blue Ginger- Taj Palace Hotel,Vietnamese Restaurant,28.59556631128013,77.17061734655923,"North Indian, European, Asian",4.0,4500.0
21,,Mathew's Cafe,Indian Restaurant,28.564963506585816,77.17774783812706,South Indian,3.9,100.0
22,,Rani Bagh at Taj Palace,Indian Restaurant,28.595828785096643,77.17025629805485,"North Indian, European, Asian",4.0,4500.0
23,,Fatty Bao,Asian Restaurant,28.572562359110798,77.17358521765252,Thai,4.2,3000.0
24,,Hyatt Cafe & Buffet,Breakfast Spot,28.568644533704024,77.1852817466771,"Japanese, Thai, Sushi",4.1,4000.0
25,,Orient Express,French Restaurant,28.59527983594402,77.17106759808968,European,4.2,8000.0
26,,Kafe Fontana,Mediterranean Restaurant,28.59558204886257,77.17057889897362,"Cafe, Beverages, Italian, Chinese",4.1,600.0
27,,"Sidewalk Bakery, Hyatt Regency",Bakery,28.568603692997176,77.18528495816096,"Japanese, Thai, Sushi",4.1,4000.0
28,,Masala Art - Taj Palace Hotel,Indian Restaurant,28.595007120309404,77.1706001073428,"North Indian, European, Asian",4.0,4500.0
29,,Supreme Bakery,Bakery,28.572803805434646,77.1675829000665,"Bakery, Fast Food",4.0,200.0
30,,Nueva,Restaurant,28.572553,77.173571,"European, American, Asian",4.2,3000.0
31,,Viva O Viva,Seafood Restaurant,28.58352292989875,77.18845739432275,"Goan, Seafood",3.9,600.0
32,,Cafe Delhi Heights,Café,28.572525576126825,77.17354763152132,"North Indian, Continental, Asian",4.3,1700.0
33,,Ziu,Thai Restaurant,28.572307824312198,77.17369905187043,Thai,4.2,3000.0
34,,cafe 101,Café,28.58780021888448,77.16854810714722,"Cafe, Italian, North Indian",3.8,600.0
35,,Subway (satya niketan),Salad Place,28.588593092812623,77.16852645916028,Cafe,3.5,500.0
36,,Talab Café,Café,28.588761195219035,77.16854892476175,North Indian,3.9,600.0
37,,The Brick House Diner,American Restaurant,28.589737985139916,77.17534457434402,"North Indian, Chinese, Continental",3.3,1000.0
38,,"Cafe, Hyatt Regency",Café,28.5695241424451,77.18540254555136,"Cafe, Continental, North Indian",3.9,3500.0
39,,Salad Chef,Salad Place,28.567814937762936,77.15871420217104,"Healthy Food, Fast Food, Salad",3.9,500.0
40,,Breads & More,Bakery,28.567828153671986,77.15843335863812,"Healthy Food, Fast Food, Salad",3.9,500.0
41,,"Restaurant Aangan, Hyatt Regency Hotel",Indian Restaurant,28.569256000407933,77.18479851565564,"Japanese, Thai, Sushi",4.1,4000.0
42,,Indigo,Modern European Restaurant,28.570401560089998,77.18583494620346,North Indian,3.3,400.0
43,,Hyatt Restaurant,Restaurant,28.568758418219364,77.18525653978054,"Japanese, Thai, Sushi",4.1,4000.0
44,,Army Battle Honours Mess,Diner,28.59509153200848,77.17153119567655,South Indian,0,200.0
45,,Too Mikkii Tapas,Café,28.59504147063103,77.17200857673038,"Cafe, Italian, Continental",4.1,700.0
46,,the Hangout Cafe,Bakery,28.592620581444525,77.15900066189221,"Beverages, Cafe, Sandwich, Fast Food",3.2,600.0
47,,The Lobby Lounge,Café,28.579982019583856,77.18929409469396,"Cafe, Continental",3.8,2000.0
48,,Spicy Duck,Chinese Restaurant,28.595622,77.17052,European,4.2,8000.0
